,City Name,Country,Lat,Lng,Date,Humidity,Cloudiness,Max Temp,Wind Speed
0,Mantua,IT,45.16,10.79,1551319163,79,0,50.26999999999996,0.5
1,Dikson,RU,73.51,80.55,1551319271,89,56,-1.285599999999981,15.02
2,Safford,US,32.83,-109.71,1551319269,22,1,68.26999999999995,3.6
3,Labuhan,ID,-2.54,115.51,1551319233,73,48,84.66439999999997,1.32
4,Punta Arenas,CL,-53.16,-70.91,1551318791,81,90,50.26999999999996,3.1
5,Cidreira,BR,-30.17,-50.22,1551319271,96,48,66.97939999999998,2.42
6,Yellowknife,CA,62.45,-114.38,1551315600,71,75,5.2699999999999605,7.2
7,Provideniya,RU,64.42,-173.23,1551319272,95,88,32.55439999999999,10.97
8,Hofn,IS,64.25,-15.21,1551319272,100,92,37.909400000000026,3.62
9,Ilhabela,BR,-23.78,-45.36,1551319272,100,68,76.0694,3.07
10,Dongsheng,CN,29.72,112.52,1551319272,94,24,49.87939999999999,2.07
11,Benguela,AO,-12.58,13.4,1551319273,100,44,78.36439999999996,0.37
12,Jiayuguan,CN,39.77,98.29,1551319145,65,0,18.514399999999966,1.12
13,Katsuura,JP,33.93,134.5,1551318139,93,90,47.26400000000003,4.1
14,Ternate,PH,14.29,120.72,1551319244,69,75,81.266,4.1
15,Grand-Santi,GF,4.27,-54.38,1551319274,64,12,79.57939999999999,2.07
16,Severo-Yeniseyskiy,RU,60.37,93.04,1551319274,72,76,19.68440000000003,2.77
17,Egvekinot,RU,66.32,-179.17,1551319274,89,88,22.339399999999966,2.77
18,Hermanus,ZA,-34.42,19.24,1551319250,80,20,65.26400000000004,1.79
19,Rio Brilhante,BR,-21.8,-54.54,1551319274,98,92,69.90439999999998,3.32
20,Acapulco,MX,16.86,-99.88,1551318660,78,20,80.86999999999996,2.1
21,Boguchany,RU,58.38,97.46,1551319275,72,68,27.199400000000047,3.57
22,Torbay,CA,47.66,-52.73,1551319202,73,75,23.26999999999996,15.4
23,Mataura,NZ,-46.19,168.86,1551318606,76,80,55.274000000000015,1.79
24,Matay,EG,28.42,30.79,1551319275,71,0,46.99940000000005,4.22
25,Ushuaia,AR,-54.81,-68.31,1551315600,81,75,48.469999999999956,9.8
26,Makakilo City,US,21.35,-158.09,1551318994,56,20,75.46999999999996,3.6
27,Hithadhoo,MV,-0.6,73.08,1551319275,100,92,82.41439999999997,3.92
28,Kalemie,CD,-5.95,29.2,1551319118,100,44,75.43939999999996,0.62
29,Nalut,LY,31.86,10.98,1551319276,90,0,39.16940000000001,2.72
30,Avarua,CK,-21.21,-159.78,1551315600,70,32,84.46999999999996,4.6
31,Lompoc,US,34.64,-120.46,1551319261,93,90,57.469999999999956,7.2
32,Nikolayevsk-na-amure,RU,53.14,140.72,1551319277,65,0,21.754399999999986,3.57
33,Vigrestad,NO,58.57,5.7,1551319238,93,75,41.26999999999996,5.7
34,Rikitea,PF,-23.12,-134.97,1551319277,100,0,80.38939999999997,2.77
35,Lincoln,US,40.8,-96.67,1551319245,72,1,11.264000000000031,1.5
36,Cedar City,US,37.68,-113.06,1551319206,42,1,48.469999999999956,7.2
37,Ugoofaaru,MV,5.67,73.0,1551319278,100,44,81.0194,1.67
38,Novyy Urgal,RU,51.07,132.56,1551319278,73,0,23.104399999999988,1.77
39,Sinazongwe,ZM,-17.26,27.46,1551319278,82,0,73.90940000000003,2.27
40,Qandala,SO,11.47,49.87,1551319278,76,0,61.579399999999985,1.27
41,Presidente Venceslau,BR,-21.88,-51.85,1551315600,94,92,73.66999999999996,1.22
42,Peterhead,AU,-34.83,138.5,1551319217,37,0,99.266,4.1
43,Kaitangata,NZ,-46.28,169.85,1551319265,54,80,57.272000000000034,7.6
44,Busselton,AU,-33.64,115.35,1551319207,29,88,86.26999999999995,4.87
45,Leningradskiy,RU,69.38,178.42,1551319279,82,20,17.704399999999985,6.02
46,Butaritari,KI,3.07,172.79,1551319140,100,56,82.72939999999998,7.32
47,Cayenne,GF,4.94,-52.33,1551317400,74,68,79.06999999999996,4.6
48,Atuona,PF,-9.8,-139.03,1551319280,100,20,81.60439999999998,2.87
49,Vaini,IN,15.34,74.49,1551315600,67,0,57.469999999999956,1.87
50,Hilo,US,19.71,-155.08,1551319095,60,90,73.66999999999996,5.7
51,Barrow,AR,-38.31,-60.23,1551318673,84,48,54.289399999999965,2.32
52,Anadyr,RU,64.73,177.51,1551318791,92,0,25.069999999999958,2.0
53,Tasiilaq,GL,65.61,-37.64,1551315000,74,80,30.46999999999996,8.2
54,Esperance,TT,10.24,-61.45,1551318907,88,20,76.26199999999996,3.6
55,Mayskiy,RU,43.63,44.06,1551315600,90,75,32.26999999999996,2.0
56,Iqaluit,CA,63.75,-68.52,1551318766,70,75,-1.7320000000000135,10.3
57,Pevek,RU,69.7,170.27,1551319281,68,0,1.9543999999999855,1.87
58,Karatau,KZ,43.18,70.46,1551319281,43,56,44.25439999999999,4.47
59,Beihai,CN,38.95,121.19,1551318775,39,0,50.26999999999996,3.0
60,Tiksi,RU,71.64,128.87,1551318794,68,0,-9.790600000000026,4.12
61,Altus,US,34.64,-99.33,1551318321,79,90,26.86999999999996,5.7
62,Belaya Gora,RU,68.54,146.19,1551319282,76,80,-7.180599999999991,1.92
63,San Vicente,SV,13.64,-88.78,1551318933,69,0,79.06999999999996,2.1
64,New Norfolk,AU,-42.78,147.06,1551319275,49,0,70.26799999999999,3.1
65,Tuktoyaktuk,CA,69.44,-133.03,1551315600,77,20,-1.9299999999999926,4.6
66,Seoul,KR,37.57,126.98,1551316860,51,75,43.06999999999996,1.0
67,Bandarbeyla,SO,9.49,50.81,1551319283,100,0,74.62939999999999,1.42
68,Thompson,CA,55.74,-97.86,1551315600,78,90,12.46999999999996,2.6
69,Jinchang,CN,38.52,102.19,1551319117,72,20,23.329399999999985,1.37
70,Uzhur,RU,55.32,89.85,1551319284,71,56,17.119400000000006,1.57
71,Ponta do Sol,BR,-20.63,-46.0,1551319284,93,36,66.79940000000005,1.02
72,Flin Flon,CA,54.77,-101.88,1551319259,59,32,10.23440000000003,3.92
73,Bayir,TR,37.27,28.22,1551316800,52,0,43.26799999999999,5.1
74,Cape Town,ZA,-33.93,18.42,1551319052,72,75,65.26400000000004,2.1
75,Clyde River,CA,70.47,-68.59,1551315600,75,1,-16.32999999999999,7.7
76,Vestmannaeyjar,IS,63.44,-20.27,1551318986,98,20,38.58440000000003,6.72
77,Airai,TL,-8.93,125.41,1551319285,71,76,81.33440000000003,1.02
78,Lebu,ET,8.96,38.73,1551319102,75,0,37.50439999999999,1.22
79,Mahebourg,MU,-20.41,57.7,1551319141,83,40,80.86999999999996,3.1
80,Georgetown,GY,6.8,-58.16,1551315600,83,40,79.06999999999996,8.2
81,Puerto Ayora,EC,-0.74,-90.35,1551319285,100,36,81.28939999999997,2.22
82,Orlik,RU,52.51,99.83,1551319285,57,0,12.934400000000029,0.97
83,Lucapa,AO,-8.42,20.74,1551319286,95,68,68.05940000000002,1.52
84,Dodge City,US,37.75,-100.02,1551319238,72,1,11.264000000000031,5.1
85,Campoverde,IT,41.54,12.73,1551319264,75,0,49.26199999999996,2.6
86,Khatanga,RU,71.98,102.47,1551319287,65,56,-8.89060000000002,3.22
87,Pallasovka,RU,50.04,46.89,1551319287,92,88,22.159400000000026,3.32
88,Nioro,GM,13.79,-15.05,1551319287,32,0,63.784400000000026,5.37
89,Agnibilekrou,CI,7.13,-3.2,1551319287,84,12,70.21940000000001,0.97
90,Hobart,AU,-42.88,147.33,1551319155,49,0,69.27799999999996,3.1
91,Erdenet,MN,49.03,104.04,1551319287,46,0,26.56940000000001,1.67
92,Ahipara,NZ,-35.17,173.16,1551319288,67,0,70.57939999999999,8.62
93,Ribas do Rio Pardo,BR,-20.45,-53.76,1551319288,95,64,70.80439999999999,2.82
94,Luganville,VU,-15.51,167.18,1551319288,100,92,80.74940000000005,6.97
95,Srednekolymsk,RU,67.46,153.71,1551318795,63,68,-8.035599999999981,2.22
96,Peshkopi,AL,41.68,20.43,1551318600,79,0,28.66999999999996,2.1
97,Rocha,UY,-34.48,-54.34,1551319288,71,24,53.74940000000005,3.42
98,Diffa,NE,13.32,12.61,1551319288,35,100,77.73440000000002,4.72
99,Bredasdorp,ZA,-34.53,20.04,1551318372,63,88,65.26400000000004,4.1
100,Yar-Sale,RU,66.83,70.83,1551319289,78,68,1.8643999999999679,8.77
101,Dicabisagan,PH,17.08,122.42,1551319289,100,44,74.98939999999996,1.57
102,Upernavik,GL,72.79,-56.15,1551319289,100,0,5.779399999999988,10.42
103,Porto Novo,BR,-23.68,-45.44,1551315600,100,40,71.86999999999996,1.5
104,Hasaki,JP,35.73,140.83,1551315720,93,90,46.66999999999996,2.6
105,Qasigiannguit,GL,68.82,-51.19,1551315000,46,0,28.66999999999996,8.2
106,Sandwick,GB,54.57,-2.89,1551319268,100,90,42.27799999999996,0.5
107,Souillac,FR,45.6,-0.6,1551319286,87,0,52.26799999999999,3.1
108,Longyearbyen,NO,78.22,15.63,1551318600,65,40,3.46999999999996,4.6
109,Kargasok,RU,59.06,80.87,1551319290,79,76,14.104399999999988,2.87
110,Portland,US,45.52,-122.67,1551319106,69,90,37.66999999999996,7.7
111,Albany,US,42.65,-73.75,1551319142,61,90,17.86999999999996,1.5
112,Vinh,VN,18.67,105.69,1551319058,94,32,75.88939999999997,1.87
113,Skjervoy,NO,70.03,20.97,1551319291,100,76,29.764399999999966,8.72
114,Port Alfred,ZA,-33.59,26.89,1551319003,70,0,63.266000000000005,1.79
115,Ilulissat,GL,69.22,-51.1,1551315000,46,0,28.66999999999996,8.2
116,Finspang,SE,58.71,15.77,1551319272,86,0,41.26999999999996,5.1
117,Gimbi,ET,8.81,37.79,1551319291,74,8,39.30439999999999,1.12
118,Iskateley,RU,67.68,53.15,1551319292,61,0,0.7843999999999767,1.62
119,Luwuk,ID,-0.95,122.79,1551319292,96,88,80.47939999999998,1.17
120,Arraial do Cabo,BR,-22.97,-42.02,1551319292,95,88,79.84940000000005,2.57
121,Sistranda,NO,63.73,8.83,1551319163,86,75,41.26999999999996,11.3
122,Santa Barbara,US,34.42,-119.7,1551319225,93,90,57.469999999999956,3.6
123,La Ronge,CA,55.1,-105.3,1551315600,66,90,14.26999999999996,7.7
124,East London,ZA,-33.02,27.91,1551319293,100,0,68.28440000000003,5.12
125,Sao Joao da Barra,BR,-21.64,-41.05,1551319293,96,48,82.95439999999999,7.07
126,Tessalit,ML,20.2,1.01,1551319223,26,24,49.65439999999999,5.47
127,Cherskiy,RU,68.75,161.3,1551319294,75,88,-0.11560000000002191,3.07
128,Narasannapeta,IN,18.42,84.04,1551319294,83,32,72.91940000000001,1.97
129,Kuching,MY,1.56,110.34,1551317400,88,75,80.86999999999996,1.0
130,Genoa,IT,44.41,8.93,1551319032,81,75,53.27599999999999,2.1
131,Dingle,PH,11.0,122.67,1551319294,52,0,86.46439999999997,4.92
132,Castro,CL,-42.48,-73.76,1551315600,87,0,50.26999999999996,2.6
133,Jamestown,AU,-33.21,138.6,1551318552,79,0,84.21439999999997,3.67
134,Saint George,GR,39.45,22.34,1551315000,86,40,43.06999999999996,2.1
135,Sao Filipe,CV,14.9,-24.5,1551319296,92,0,71.16439999999997,7.92
136,Svetlopolyansk,RU,59.42,52.36,1551319296,83,76,16.669400000000007,2.77
137,Saint-Philippe,CA,45.36,-73.48,1551319108,60,90,7.267999999999983,1.22
138,Paamiut,GL,61.99,-49.67,1551319147,69,76,39.16940000000001,5.32
139,Zhangye,CN,38.94,100.46,1551319296,72,0,30.889399999999966,1.62
140,Poli,CM,8.48,13.24,1551319297,64,64,74.35940000000002,1.07
141,Azangaro,PE,-14.91,-70.2,1551315600,302,90,53.86999999999996,3.1
142,San Quintin,PH,17.54,120.52,1551319297,49,0,82.90940000000003,1.57
143,Pangnirtung,CA,66.15,-65.72,1551319297,62,0,-13.795600000000015,2.02
144,Fairbanks,US,64.84,-147.72,1551319207,66,1,27.26600000000001,1.22
145,Shelburne,CA,44.08,-80.2,1551319036,84,90,11.264000000000031,1.0
146,Sawtell,AU,-30.38,153.1,1551319204,64,75,77.26999999999995,3.1
147,Sambava,MG,-14.27,50.17,1551319298,100,92,77.86940000000001,5.57
148,Chuy,UY,-33.69,-53.46,1551319204,88,0,58.96940000000001,3.77
149,Port Hardy,CA,50.7,-127.42,1551315600,55,90,39.469999999999956,1.5
150,Sola,NO,58.89,5.65,1551319238,93,75,43.06999999999996,5.7
151,Blackwater,GB,51.33,-0.78,1551319288,100,36,46.66999999999996,0.5
152,Nacala,MZ,-14.56,40.69,1551319299,100,36,80.25439999999999,1.22
153,Berlevag,NO,70.86,29.09,1551319259,100,76,23.59940000000005,6.92
154,Maragogi,BR,-9.01,-35.22,1551319299,98,36,73.68440000000002,1.82
155,Tuatapere,NZ,-46.13,167.69,1551319208,71,76,55.274000000000015,4.02
156,Kapaa,US,22.08,-159.32,1551319098,50,75,75.46999999999996,8.2
157,Meulaboh,ID,4.14,96.13,1551319299,100,36,82.63939999999997,1.32
158,Mitu,IR,36.2,46.09,1551319300,92,92,31.834400000000027,1.07
159,Grosuplje,SI,45.96,14.66,1551319294,86,0,38.26400000000003,1.0
160,Nikolskoye,RU,59.7,30.79,1551319263,74,90,36.266000000000005,3.0
161,Taoudenni,ML,22.68,-3.98,1551319119,31,0,50.599400000000045,5.82
162,Pacific Grove,US,36.62,-121.92,1551319300,87,90,61.26799999999999,2.6
163,Tabou,CI,4.42,-7.36,1551319301,96,68,82.90940000000003,4.77
164,Vilyuysk,RU,63.75,121.63,1551319301,80,76,11.989399999999968,1.62
165,Luderitz,NA,-26.65,15.16,1551319302,76,0,61.21940000000001,7.92
166,Qaanaaq,GL,77.48,-69.36,1551319302,85,0,-19.735599999999977,2.07
167,Coihaique,CL,-45.58,-72.07,1551315600,71,0,55.66999999999996,0.5
168,Acari,BR,-6.44,-36.64,1551319302,93,36,68.10439999999998,2.17
169,Versmold,DE,52.04,8.15,1551319255,80,0,48.272000000000034,1.5
170,Cabo San Lucas,MX,22.89,-109.91,1551319258,64,75,72.266,2.02
171,San Patricio,PY,-26.98,-56.83,1551319303,62,0,67.60940000000002,2.57
172,Wanning,AT,48.64,13.53,1551319291,86,0,38.26400000000003,2.1
173,Bluff,AU,-23.58,149.07,1551318664,35,32,88.53440000000003,4.92
174,Sinjar,SY,35.59,37.0,1551319303,96,68,47.44940000000005,6.92
175,Boysun,UZ,38.2,67.2,1551319303,65,64,19.23440000000003,0.92
176,Saskylakh,RU,71.97,114.09,1551319115,56,36,-19.780599999999993,1.42
177,Dunedin,NZ,-45.87,170.5,1551318939,54,56,57.272000000000034,4.47
178,Vardo,US,39.62,-77.74,1551319114,80,75,37.274000000000015,2.6
179,Angoche,MZ,-16.23,39.91,1551319304,100,0,82.00940000000003,2.37
180,Kodiak,US,39.95,-94.76,1551319300,43,1,18.26600000000001,1.5
181,Alem Paraiba,BR,-21.89,-42.7,1551319304,96,80,69.81439999999996,1.52
182,Dwarka,IN,28.58,77.04,1551319208,87,20,64.27400000000002,1.77
183,Luau,CD,-10.7,22.23,1551319234,95,24,66.70940000000003,0.42
184,Talcahuano,CL,-36.72,-73.12,1551315600,82,0,59.26999999999996,2.1
185,Kachiry,KZ,53.07,76.1,1551319305,76,68,13.249400000000048,1.37
186,Sovetskaya,RU,44.78,41.17,1551319264,8,80,28.27400000000001,1.79
187,Padang,ID,-0.92,100.36,1551315600,83,20,82.66999999999996,1.0
188,Kovdor,RU,67.56,30.47,1551319305,65,8,19.369400000000006,3.42
189,Homer,US,59.64,-151.54,1551319271,64,20,37.66999999999996,3.6
190,Qiongshan,CN,20.01,110.35,1551315600,100,75,71.86999999999996,2.0
191,Nakhon Thai,TH,17.1,100.84,1551315600,88,20,79.06999999999996,1.22
192,Camacha,PT,33.08,-16.33,1551317400,63,20,61.06999999999996,3.1
193,Kyaikkami,MM,16.08,97.57,1551319306,62,0,87.3194,1.22
194,Gravdal,NO,59.79,5.78,1551319087,81,0,43.06999999999996,6.2
195,Arman,RU,59.7,150.17,1551319181,62,36,5.959400000000027,1.97
196,Port Blair,IN,11.67,92.75,1551319098,99,0,83.40439999999998,4.72
197,Norman Wells,CA,65.28,-126.83,1551315600,67,40,21.46999999999996,2.6
198,Skibbereen,IE,51.55,-9.27,1551317400,100,90,46.66999999999996,3.6
199,Adre,TD,13.47,22.2,1551319307,29,12,72.55940000000002,5.67
200,Jefferson City,US,38.58,-92.17,1551319216,73,20,28.66999999999996,2.1
201,Matagami,NG,9.67,8.4,1551319307,98,88,65.2694,0.87
202,Ixtapa,MX,20.71,-105.21,1551319237,88,20,75.46999999999996,1.5
203,Salalah,OM,17.01,54.1,1551318600,69,0,73.66999999999996,1.5
204,Gorontalo,ID,0.54,123.06,1551319308,65,76,82.18939999999996,1.47
205,Surazh,RU,53.01,32.39,1551319308,94,92,30.439399999999967,5.62
206,Guerrero Negro,MX,27.97,-114.04,1551319308,92,0,56.539399999999965,5.02
207,Maniitsoq,GL,65.42,-52.9,1551319309,69,44,24.04940000000005,6.72
208,Kamenka,RU,53.19,44.05,1551319309,91,92,21.754399999999986,3.97
209,Ruwi,OM,23.6,58.55,1551318600,64,0,73.66999999999996,1.5
210,Terney,RU,45.05,136.61,1551319309,66,0,35.74940000000005,3.67
211,Lavrentiya,RU,65.58,-170.99,1551319310,94,92,33.454399999999985,14.82
212,Westport,IE,53.8,-9.52,1551319092,99,56,42.27799999999996,2.68
213,Juanjui,PE,-7.18,-76.73,1551319310,78,44,75.75439999999999,1.22
214,Seabra,BR,-12.42,-41.77,1551319310,91,56,66.21439999999997,1.17
215,Marataizes,BR,-21.04,-40.82,1551319235,96,32,80.43440000000002,3.67
216,Yulara,AU,-25.24,130.99,1551315600,9,0,98.86999999999996,5.1
217,Saldanha,PT,41.42,-6.55,1551319105,77,36,32.284400000000026,1.22
218,Sitka,US,37.17,-99.65,1551318356,78,8,13.261999999999954,1.34
219,Rawson,AR,-43.3,-65.11,1551319311,75,24,54.604399999999984,3.97
220,Riyadh,SA,24.63,46.72,1551315600,51,75,62.86999999999996,1.0
221,Viedma,AR,-40.81,-62.99,1551319311,88,0,46.81940000000001,1.42
222,Beringovskiy,RU,63.05,179.32,1551319312,91,12,27.379399999999986,2.17
223,Akdepe,TM,42.05,59.39,1551315600,86,90,39.469999999999956,6.2
224,Topchanchi,IN,23.9,86.2,1551319312,86,32,65.40439999999998,1.97
225,Kavieng,PG,-2.57,150.8,1551319312,100,56,82.09940000000005,3.12
226,Aklavik,CA,68.22,-135.01,1551315600,61,5,16.069999999999958,3.1
227,Bathsheba,BB,13.22,-59.52,1551315600,78,40,77.26999999999995,7.2
228,Singkang,MY,2.1,102.8,1551315600,78,75,80.86999999999996,4.6
229,Palmer,AU,-34.85,139.16,1551319306,37,0,99.266,4.1
230,Klaksvik,FO,62.23,-6.59,1551318600,86,8,34.06999999999996,2.52
231,Ancud,CL,-41.87,-73.83,1551315600,87,0,50.26999999999996,2.6
232,Husum,DE,54.49,9.05,1551319259,93,0,41.26999999999996,3.6
233,Kavaratti,IN,10.57,72.64,1551319204,100,0,83.40439999999998,5.82
234,Bucerias,MX,20.76,-105.33,1551318923,88,5,75.46999999999996,3.1
235,Goderich,CA,43.74,-81.71,1551319010,65,48,22.261999999999954,0.89
236,General Roca,AR,-39.03,-67.58,1551315600,52,0,70.06999999999996,3.42
237,Nouadhibou,MR,20.93,-17.03,1551315600,59,0,64.66999999999996,6.2
238,Le Pradet,FR,46.44,1.83,1551319281,75,0,41.26999999999996,3.6
239,Kumluca,TR,36.37,30.29,1551319314,72,0,12.529399999999988,0.67
240,Kendal,ID,-6.92,110.2,1551313800,74,20,84.46999999999996,0.5
241,Port Hawkesbury,CA,45.62,-61.36,1551319308,61,1,16.267999999999983,8.2
242,The Valley,AI,18.22,-63.06,1551319221,73,20,77.26999999999995,6.7
243,Ketchikan,US,55.34,-131.65,1551315180,29,1,52.06999999999996,3.6
244,Taksimo,RU,56.36,114.84,1551319315,54,12,19.954399999999985,0.72
245,Pecos,US,31.42,-103.49,1551318900,20,1,68.26999999999995,1.82
246,Hun,BE,50.34,4.87,1551319298,81,0,48.469999999999956,1.0
247,Wyndham,GB,51.61,-3.54,1551319244,93,92,49.26199999999996,1.0
248,Dalbandin,PK,28.9,64.41,1551319316,62,68,51.85940000000003,4.62
249,Fredericksburg,US,38.3,-77.46,1551319235,80,90,42.27799999999996,3.22
250,Kruisfontein,ZA,-34.0,24.73,1551319146,76,0,63.37939999999999,7.27
251,Yerbogachen,RU,61.28,108.01,1551319316,86,64,15.904399999999988,2.22
252,Pulivendla,IN,14.42,78.23,1551319316,40,0,74.76439999999997,3.32
253,Grand Gaube,MU,-20.01,57.66,1551319141,83,40,80.86999999999996,3.1
254,Talnakh,RU,69.49,88.39,1551319127,69,36,-16.18059999999999,4.32
255,Tupik,RU,54.43,119.94,1551319317,52,0,21.889399999999966,2.32
256,Cabedelo,BR,-6.97,-34.84,1551315600,88,0,79.06999999999996,1.5
257,Kuandian,CN,40.73,124.78,1551319317,26,0,46.414399999999965,1.62
258,Elizabeth City,US,36.3,-76.22,1551319254,93,90,49.26199999999996,2.1
259,Te Anau,NZ,-45.41,167.72,1551319317,56,56,53.61439999999997,1.62
260,Djambala,CG,-2.55,14.76,1551319318,98,92,67.60940000000002,2.72
261,Takoradi,GH,4.89,-1.75,1551319315,99,88,82.05439999999999,3.47
262,Elko,US,40.83,-115.76,1551319101,49,40,49.26199999999996,2.1
263,Tinskoy,RU,56.15,96.92,1551319318,84,68,30.93440000000003,2.17
264,Port Hedland,AU,-20.31,118.58,1551315600,66,0,91.66999999999996,4.6
265,Hami,CN,42.84,93.51,1551319318,54,12,28.504399999999986,2.77
266,Kulhudhuffushi,MV,6.62,73.07,1551319319,100,36,81.51439999999997,2.22
267,Chokurdakh,RU,70.62,147.9,1551319319,67,76,-9.340600000000023,6.32
268,Sovetskiy,RU,56.76,48.47,1551319319,86,80,17.164399999999965,3.77
269,Tura,IN,25.52,90.21,1551319319,97,92,60.04940000000005,1.67
270,Turayf,SA,31.68,38.65,1551315600,75,40,46.66999999999996,5.1
271,Hay River,CA,60.82,-115.79,1551315600,60,20,7.069999999999958,4.1
272,Brae,GB,60.4,-1.35,1551318600,86,48,41.26999999999996,5.7
273,Tecoanapa,MX,16.99,-99.26,1551318660,78,20,80.86999999999996,2.1
274,Khandyga,RU,62.65,135.58,1551319320,59,0,-7.135599999999982,1.52
275,Rampura,IN,24.47,75.44,1551319320,100,0,57.349400000000045,2.52
276,Manggar,ID,-2.88,108.27,1551319321,96,76,83.35940000000002,2.12
277,San Buenaventura,MX,27.06,-101.55,1551319204,55,44,79.26799999999999,1.34
278,Yumen,CN,40.29,97.04,1551319321,56,0,26.164399999999965,1.52
279,Kawalu,ID,-7.38,108.21,1551319321,84,68,76.60940000000002,1.32
280,Ust-Nera,RU,64.57,143.24,1551319321,80,36,-20.99560000000001,1.12
281,Charlestown,US,41.38,-71.64,1551319317,92,90,25.267999999999983,1.5
282,Kedougou,SN,12.56,-12.19,1551319322,33,0,60.36439999999997,3.22
283,Kitui,KE,-1.37,38.02,1551319322,86,8,59.329399999999985,1.22
284,Marawi,PH,8.0,124.29,1551318377,72,0,78.27799999999996,2.24
285,Neiafu,TO,-18.65,-173.98,1551319200,84,75,86.26999999999995,5.7
286,Bonthe,SL,7.53,-12.5,1551319322,84,32,79.39940000000004,2.22
287,Togur,RU,58.36,82.83,1551319323,83,88,17.29940000000005,3.72
288,Shubarshi,KZ,48.59,57.19,1551319323,78,76,20.989399999999968,2.12
289,Prince Albert,CA,53.2,-105.75,1551315600,67,75,19.66999999999996,5.1
290,Melilla,EC,-0.8,-80.23,1551315600,88,75,80.86999999999996,2.12
291,Victoria,BN,5.28,115.24,1551315600,83,75,82.66999999999996,2.6
292,Lorengau,PG,-2.02,147.27,1551319324,100,68,82.00940000000003,1.87
293,Paita,PE,-5.09,-81.11,1551319324,79,0,75.03440000000003,1.97
294,Sao Luis de Montes Belos,BR,-16.52,-50.37,1551319324,86,92,72.15439999999998,1.97
295,Jeremie,HT,18.65,-74.12,1551319325,100,8,74.76439999999997,0.42
296,Yamada,JP,36.58,137.08,1551319203,100,75,46.66999999999996,0.5
297,Haines Junction,CA,60.75,-137.51,1551319325,71,0,6.4543999999999855,0.52
298,Gizo,IL,31.8,34.94,1551319280,76,75,56.26400000000003,6.2
299,Teya,MX,21.05,-89.07,1551319258,61,20,80.86999999999996,5.1
300,Riviere-au-Renard,CA,49.0,-64.4,1551315600,55,40,10.669999999999959,7.7
301,San Andres,PH,13.32,122.68,1551319288,99,0,79.39940000000004,3.87
302,Praia da Vitoria,PT,38.73,-27.07,1551319263,82,40,61.26799999999999,10.52
303,Aykhal,RU,65.95,111.51,1551319326,66,12,4.2043999999999855,2.22
304,Gwadar,PK,25.12,62.33,1551319326,89,12,66.52939999999998,3.02
305,Faya,SA,18.39,42.45,1551315600,45,0,62.86999999999996,2.6
306,North Battleford,CA,52.78,-108.3,1551318538,67,1,23.26999999999996,4.6
307,Jalesar,IN,27.47,78.3,1551319327,85,0,53.02939999999999,3.22
308,Rincon,US,32.3,-81.24,1551319103,100,1,64.66999999999996,1.27
309,Ambilobe,MG,-13.19,49.05,1551319327,94,68,73.18939999999996,0.52
310,Leh,IN,34.16,77.58,1551319123,66,56,-15.010599999999982,0.17
311,Mar del Plata,AR,-46.43,-67.52,1551319327,72,92,57.979399999999984,3.22
312,Sarlat-la-Caneda,FR,44.89,1.22,1551319271,87,0,48.272000000000034,3.1
313,Alofi,NU,-19.06,-169.92,1551319200,83,75,84.46999999999996,5.1
314,Worpswede,DE,53.22,8.93,1551319326,86,0,44.27599999999999,4.1
315,Chumikan,RU,54.72,135.31,1551319107,57,0,22.969400000000007,4.02
316,Vanimo,PG,-2.67,141.3,1551319329,100,0,80.16439999999997,3.02
317,Svetlogorsk,RU,53.14,59.15,1551315600,73,75,19.66999999999996,5.0
318,San Carlos de Bariloche,AR,-41.13,-71.31,1551315600,33,0,62.86999999999996,0.77
319,Edd,ER,13.93,41.69,1551319329,89,0,62.20940000000003,0.77
320,Constitucion,MX,23.99,-104.67,1551319217,10,90,71.86999999999996,5.1
321,Mailsi,PK,29.8,72.18,1551319249,80,12,50.599400000000045,1.32
322,Mnogovershinnyy,RU,53.94,139.92,1551319330,57,0,21.34940000000005,2.22
323,Keti Bandar,PK,24.14,67.45,1551319330,97,0,70.21940000000001,2.57
324,Antofagasta,CL,-23.65,-70.4,1551315600,83,0,70.06999999999996,3.1
325,Miri,NG,10.31,9.75,1551319330,73,92,71.38939999999997,1.17
326,Lagoa,PT,37.14,-8.45,1551319029,87,0,54.266000000000005,2.6
327,Pisco,PE,-13.71,-76.2,1551315600,78,0,73.66999999999996,7.2
328,Desenzano del Garda,IT,45.47,10.54,1551319327,74,0,50.26999999999996,0.5
329,Lethem,GY,3.38,-59.8,1551319331,59,0,81.64940000000004,7.27
330,La Rioja,AR,-29.41,-66.86,1551319263,84,0,65.31439999999996,1.32
331,Tateyama,JP,36.66,137.31,1551319203,100,75,45.266000000000005,0.5
332,Prince Rupert,CA,54.32,-130.32,1551315600,27,1,50.26999999999996,4.1
333,Varhaug,NO,58.61,5.65,1551319238,93,75,41.26999999999996,5.7
334,Floro,NO,61.6,5.03,1551319206,86,48,39.469999999999956,6.2
335,Ozark,US,37.02,-93.21,1551319235,98,90,34.26799999999999,4.1
336,Ponta Delgada,PT,37.73,-25.67,1551319275,93,75,61.06999999999996,6.2
337,Grindavik,IS,63.84,-22.43,1551317400,80,75,41.26999999999996,7.2
338,Oparino,RU,59.85,48.28,1551319332,71,80,10.369400000000006,2.22
339,Port Lincoln,AU,-34.72,135.86,1551319146,81,0,76.60940000000002,2.82
340,Dutse,NG,11.76,9.34,1551319333,43,88,75.25940000000003,2.72
341,Shingu,JP,33.72,135.99,1551315600,100,75,52.06999999999996,4.6
342,Itoman,JP,26.12,127.67,1551318791,94,90,71.86999999999996,4.6
343,Banjar,ID,-7.37,108.54,1551319333,77,12,83.40439999999998,1.67
344,Darhan,MN,49.49,105.92,1551319333,44,0,30.034400000000026,2.17
345,Richards Bay,ZA,-28.77,32.06,1551319334,100,92,70.53440000000003,1.02
346,Bilibino,RU,68.06,166.44,1551319334,70,48,-3.0855999999999852,1.37
347,Hervey Bay,AU,-25.3,152.85,1551319209,42,40,87.27799999999996,7.2
348,Bahia Blanca,AR,-38.72,-62.27,1551319222,100,0,56.809400000000025,1.52
349,Xuanhua,CN,40.61,115.04,1551319334,49,0,38.44940000000005,1.42
350,Ribeira Grande,PT,38.52,-28.7,1551315600,93,75,62.86999999999996,8.2
351,Port Keats,AU,-14.25,129.55,1551319334,96,0,88.84940000000005,2.67
352,Calamar,CO,1.96,-72.65,1551319335,38,80,87.58939999999997,1.27
353,Pemberton,AU,-34.44,116.03,1551319075,63,56,77.26999999999995,0.89
354,College,US,64.86,-147.8,1551319316,72,1,26.27599999999999,1.22
355,Faanui,PF,-16.48,-151.75,1551319335,100,56,83.89940000000004,4.57
356,Shirokiy,RU,53.87,39.17,1551319141,66,76,26.27599999999999,3.13
357,Pampa,US,35.54,-100.96,1551318660,46,1,28.66999999999996,3.6
358,Roviai,GR,38.82,23.23,1551319203,87,75,46.274000000000015,1.0
359,Itarema,BR,-2.92,-39.92,1551319336,96,92,76.42939999999999,1.32
360,Broken Hill,AU,-31.97,141.45,1551315600,14,0,93.46999999999996,5.1
361,Abha,SA,18.22,42.5,1551315600,45,0,62.86999999999996,2.6
362,Trat,TH,12.25,102.51,1551319190,88,20,89.27599999999998,2.52
363,Susanville,US,40.42,-120.65,1551319076,94,68,36.266000000000005,0.45
364,Phalaborwa,ZA,-23.95,31.14,1551315600,94,92,73.66999999999996,3.6
365,Port Elizabeth,US,39.31,-74.98,1551319335,82,90,39.272000000000034,2.6
366,Aleksandrov Gay,RU,50.14,48.57,1551319337,90,80,23.689399999999967,3.67
367,Tezu,IN,27.93,96.16,1551319337,100,92,48.034400000000026,0.52
368,Bethel,US,60.79,-161.76,1551315360,74,90,39.469999999999956,9.8
369,Tilichiki,RU,60.47,166.1,1551319337,75,64,7.264399999999966,1.77
370,Gaimersheim,DE,48.81,11.37,1551319328,92,1,39.272000000000034,5.22
371,Rosarito,CO,4.91,-75.23,1551315600,100,90,71.86999999999996,0.87
372,Khartoum,SD,15.59,32.54,1551317400,16,0,73.66999999999996,8.7
373,Sisimiut,GL,66.94,-53.67,1551319338,56,0,-1.6906000000000247,2.42
374,Marsa Matruh,EG,31.35,27.25,1551319338,68,24,52.75940000000003,5.92
375,Mansa,IN,23.43,72.66,1551317400,38,0,59.26999999999996,1.5
376,Ucluelet,CA,48.94,-125.55,1551318453,64,90,38.26400000000003,4.1
377,Mokhsogollokh,RU,61.4,128.95,1551319339,71,48,8.479399999999988,1.67
378,Kansanshi,ZM,-12.1,26.43,1551319339,93,56,61.849400000000045,2.82
379,Tromso,NO,69.65,18.96,1551316800,73,75,26.86999999999996,12.3
380,Ostrovnoy,RU,68.05,39.51,1551319104,86,76,18.289399999999965,4.02
381,Omboue,GA,-1.57,9.26,1551319327,100,88,80.74940000000005,0.07
382,Nishihara,JP,35.74,139.53,1551319221,93,20,46.66999999999996,2.1
383,Opuwo,NA,-18.06,13.84,1551319340,78,32,63.829399999999985,0.62
384,Buraydah,SA,26.33,43.97,1551315600,66,40,55.66999999999996,2.1
385,Yarada,IN,17.65,83.27,1551315600,88,40,75.46999999999996,1.5
386,Khorramshahr,IR,30.43,48.18,1551315600,66,0,55.66999999999996,1.0
387,Zhigansk,RU,66.77,123.37,1551319340,73,48,-2.5906000000000233,2.37
388,Kendari,ID,-3.99,122.52,1551319341,85,92,82.00940000000003,1.62
389,Yibin,CN,28.77,104.64,1551319341,100,80,50.77939999999999,1.87
390,Honningsvag,NO,70.98,25.97,1551319341,100,76,25.30940000000003,7.02
391,Komsomolskiy,RU,67.55,63.78,1551319341,77,64,6.4543999999999855,7.37
392,Alexandria,US,31.31,-92.44,1551319149,93,90,66.46999999999996,2.1
393,Hambantota,LK,6.12,81.12,1551316200,100,75,75.46999999999996,0.5
394,Valley City,US,46.92,-98.0,1551317700,84,90,3.46999999999996,7.2
395,Trapani,IT,38.02,12.54,1551319304,81,20,53.27599999999999,2.6
396,Tautira,PF,-17.73,-149.15,1551318786,66,40,88.06999999999996,1.5
397,Cumpas,MX,30.0,-109.78,1551319342,54,0,54.604399999999984,1.02
398,Broome,GB,52.47,1.45,1551319328,93,0,45.266000000000005,2.6
399,Boralday,KZ,43.36,76.86,1551315600,74,75,28.66999999999996,3.0
400,Ocampo,PH,13.56,123.37,1551319343,78,8,81.82939999999999,3.32
401,Morales,CO,8.28,-73.87,1551319343,56,92,83.89940000000004,1.32
402,Swan Hill,AU,-35.34,143.56,1551319126,78,0,84.48440000000002,4.02
403,Pasni,PK,25.26,63.48,1551319343,90,8,69.90439999999998,3.07
404,Arkhangelsk,RU,64.54,40.54,1551315600,100,90,21.46999999999996,2.0
405,Hebi,CN,35.75,114.29,1551319345,59,0,51.58939999999997,1.62
406,Alyangula,AU,-13.85,136.42,1551315600,62,75,89.86999999999996,2.1
407,Cabras,CO,5.5,-75.6,1551319078,98,12,57.272000000000034,0.82
408,Balkanabat,TM,39.51,54.36,1551319346,94,88,39.52939999999999,0.72
409,Necochea,AR,-38.55,-58.74,1551319090,71,88,60.27799999999996,1.34
410,Beyneu,KZ,45.32,55.19,1551319346,89,92,25.98440000000003,2.42
411,Narsaq,GL,60.91,-46.05,1551315000,35,36,43.06999999999996,23.1
412,Milkovo,BG,41.53,24.68,1551319084,52,90,43.26799999999999,6.2
413,Mayna,RU,53.0,91.49,1551319347,67,80,21.48440000000003,0.87
414,Sobolevo,RU,54.43,31.9,1551319347,97,92,33.36439999999997,4.47
415,Brazzaville,CD,-4.27,15.27,1551319347,99,88,68.68939999999996,1.32
416,Teguldet,RU,57.31,88.17,1551319347,77,80,22.60940000000003,3.32
417,Chapais,CA,49.78,-74.86,1551315600,83,1,-9.129999999999988,1.0
418,Janakpur,NP,26.73,85.92,1551319348,96,92,57.349400000000045,2.37
419,Pandan,PH,11.72,122.09,1551319080,97,0,79.93939999999996,7.37
420,Orzhytsya,UA,49.79,32.7,1551319348,90,56,27.15439999999999,4.82
421,Gumdag,TM,39.2,54.59,1551319348,95,88,45.73939999999997,3.62
422,Bucak,TR,37.46,30.59,1551316800,68,20,45.266000000000005,6.7
423,Filingue,NE,14.35,3.32,1551319348,24,8,61.21940000000001,3.47
424,Avera,US,33.19,-82.53,1551319316,93,1,60.27799999999996,1.67
425,Iquique,CL,-20.22,-70.14,1551315600,78,0,71.86999999999996,7.2
426,Manoel Urbano,BR,-8.84,-69.26,1551319349,97,76,72.64940000000004,1.27
427,Los Llanos de Aridane,ES,28.66,-17.92,1551319202,68,0,64.66999999999996,4.6
428,Adrar,DZ,27.87,-0.29,1551315600,52,0,43.06999999999996,3.6
429,Laguna,MX,27.52,-110.01,1551318360,56,90,68.26999999999995,2.1
430,Panaba,MX,21.28,-88.27,1551319350,63,0,78.13939999999997,3.87
431,Jiangyou,CN,31.78,104.73,1551319350,95,92,46.99940000000005,1.62
432,Tawang,BT,27.59,91.87,1551319350,76,92,30.93440000000003,0.72
433,Peniche,PT,39.36,-9.38,1551319345,81,0,53.27599999999999,3.6
434,Vao,EE,59.1,26.19,1551319351,89,20,31.879399999999986,4.62
435,Cape Coast,GH,5.11,-1.24,1551319351,90,68,76.11439999999996,1.27
436,Rudnaya Pristan,RU,44.36,135.82,1551319351,43,0,41.329399999999985,1.42
437,Severo-Kurilsk,RU,50.68,156.12,1551319307,100,68,27.10940000000003,9.32
438,Marzuq,YE,14.4,46.47,1551319352,79,0,46.54940000000005,1.17
439,Noumea,NC,-22.28,166.46,1551317400,69,90,79.06999999999996,7.7
440,Mabaruma,GY,8.2,-59.78,1551319353,87,80,77.55439999999999,3.77
441,Kidal,ML,18.44,1.41,1551319353,21,8,54.91940000000001,6.92
442,Horsham,AU,-36.71,142.2,1551319256,30,88,89.83939999999997,5.27
443,Whyalla,AU,-33.04,137.58,1551315600,61,0,82.66999999999996,3.1
444,Ulladulla,AU,-35.36,150.48,1551315600,54,40,79.06999999999996,4.6
445,Codrington,AU,-28.95,153.24,1551319214,65,75,80.86999999999996,3.6
446,Marsh Harbour,BS,26.54,-77.06,1551319337,100,80,72.0194,6.22
447,Det Udom,TH,14.9,105.08,1551315600,57,8,79.06999999999996,3.1
448,Baykit,RU,61.68,96.39,1551319354,85,68,18.019400000000008,2.92
449,Buala,SB,-8.15,159.59,1551319354,70,0,88.84940000000005,4.12
450,De-Kastri,RU,51.48,140.77,1551319354,93,0,26.56940000000001,2.77
451,Boulder City,US,35.98,-114.83,1551319105,25,1,70.26799999999999,9.3
452,Gondar,PT,41.82,-8.78,1551319306,87,0,52.26799999999999,2.1
453,Carnarvon,ZA,-30.97,22.13,1551319125,53,0,48.979399999999984,1.52
454,Nanortalik,GL,60.14,-45.24,1551319306,92,36,34.39940000000005,9.72
455,Mecca,SA,21.43,39.83,1551319171,57,20,64.72939999999998,2.67
456,Hohhot,CN,40.81,111.65,1551315600,58,0,26.86999999999996,2.0
457,Lalibela,ET,12.04,39.05,1551319355,67,12,43.264399999999966,1.22
458,Monte Azul,BR,-15.15,-42.87,1551319355,90,24,67.87939999999999,2.02
459,Carutapera,BR,-1.2,-46.02,1551319356,90,92,77.95940000000003,2.42
460,Gusinoye Ozero,RU,51.11,106.26,1551319356,52,0,30.664399999999965,1.87
461,Saint-Joseph,FR,43.56,6.97,1551319313,93,0,48.272000000000034,1.5
462,Tamesis,CO,5.66,-75.71,1551319141,100,90,57.469999999999956,2.1
463,Cockburn Town,TC,21.46,-71.14,1551319356,99,88,77.46439999999997,10.27
464,Kungurtug,RU,50.6,97.53,1551319128,72,0,11.089399999999966,1.22
465,Mora,SE,61.01,14.54,1551318822,60,0,39.469999999999956,6.2
466,Caravelas,BR,-17.73,-39.27,1551319357,100,92,83.85439999999998,7.72
467,Touros,BR,-5.2,-35.46,1551315600,88,20,79.06999999999996,2.1
468,North Bend,US,43.41,-124.22,1551318934,52,90,46.274000000000015,1.5
469,Erenhot,CN,43.65,111.97,1551319357,53,0,35.25439999999999,2.17
470,Kirakira,SB,-10.46,161.92,1551319357,100,44,80.38939999999997,1.87
471,Cachoeira do Sul,BR,-30.05,-52.89,1551319357,69,20,59.329399999999985,2.57
472,Olga,US,34.11,-118.17,1551319279,62,90,63.266000000000005,1.5
473,Kuressaare,EE,58.21,25.84,1551319277,89,0,33.27799999999996,5.7
474,Vidalia,US,31.57,-91.43,1551318906,93,90,66.46999999999996,2.6
475,Nikolayevka,RU,47.31,38.84,1551319267,97,48,33.27799999999996,1.42
476,Auki,NG,12.18,6.51,1551319358,50,64,73.99940000000005,0.97
477,Palm Coast,US,29.55,-81.22,1551319295,100,90,67.26199999999996,1.5
478,Lata,IN,30.78,78.62,1551319309,85,0,29.764399999999966,0.97
479,Sungairaya,ID,0.7,108.9,1551319358,93,64,81.37939999999999,2.07
480,Coro,VE,11.41,-69.67,1551319359,83,0,75.48440000000002,4.82
481,Raudeberg,NO,61.99,5.14,1551319206,86,88,39.469999999999956,6.2
482,Mbandaka,CD,0.05,18.26,1551319359,100,92,70.98440000000002,1.27
483,Zvenyhorodka,UA,49.08,30.97,1551319359,91,12,28.369400000000006,5.37
484,Patnagarh,IN,20.71,83.13,1551319359,74,0,72.0194,2.47
485,South River,CA,47.54,-53.27,1551319348,73,75,23.26999999999996,15.4
486,Palm Valley,US,26.2,-97.75,1551319100,69,90,80.86999999999996,3.6
487,Sorland,NO,67.67,12.69,1551319360,100,80,37.954399999999985,10.17
488,Arklow,IE,52.79,-6.14,1551319313,100,90,43.26799999999999,1.5
489,Roros,NO,62.57,11.38,1551318600,80,68,30.46999999999996,11.8
490,Bonavista,CA,48.65,-53.11,1551319238,77,88,22.261999999999954,16.87
491,Sept-Iles,CA,50.2,-66.38,1551315600,49,20,3.46999999999996,4.6
492,Olinda,EC,-2.03,-79.75,1551319302,78,40,82.66999999999996,3.6
493,Haimen,CN,31.87,121.18,1551319360,75,48,61.26799999999999,0.45
494,Herat,AF,34.35,62.22,1551318900,22,75,57.469999999999956,10.3
495,Santa Marta,CO,11.24,-74.21,1551315600,61,40,82.66999999999996,6.2
496,Yeroham,IL,30.99,34.93,1551319345,87,100,50.26999999999996,1.34
497,Soure,PT,40.06,-8.63,1551319317,100,20,47.26400000000003,1.0
498,Fresnillo,MX,23.17,-102.87,1551318540,16,75,68.26999999999995,2.6
499,Methoni,GR,36.82,21.7,1551319241,80,0,46.274000000000015,3.1
500,Gamba,CN,28.28,88.52,1551319236,85,24,9.919400000000007,2.52
501,Maryborough,AU,-25.54,152.7,1551319363,43,76,82.05439999999999,2.57
502,Ati,TD,13.21,18.34,1551319363,27,56,80.47939999999998,5.67
503,Biak,ID,-0.91,122.88,1551319363,96,88,80.47939999999998,1.17
504,Porbandar,IN,21.64,69.61,1551319363,61,0,64.05439999999999,4.82
505,Flinders,AU,-34.58,150.85,1551319331,54,40,87.27799999999996,4.6
506,Namibe,AO,-15.19,12.15,1551319143,100,48,77.50940000000003,1.47
507,Axim,GH,4.87,-2.24,1551319364,99,92,82.99940000000005,4.87
508,Husavik,CA,50.56,-96.99,1551319205,85,24,10.274000000000012,3.13
509,Kahului,US,20.89,-156.47,1551318963,50,40,79.06999999999996,7.7
510,Aleksandrovsk-Sakhalinskiy,RU,50.9,142.16,1551319364,90,0,27.10940000000003,2.32
511,Kuytun,RU,54.34,101.51,1551319365,52,68,31.159400000000026,1.17
512,Port Moresby,PG,-9.47,147.16,1551315600,59,40,91.66999999999996,6.2
513,Mizdah,LY,31.45,12.98,1551319365,85,0,33.409400000000026,1.32
514,Saint Anthony,US,43.97,-111.68,1551318918,80,1,39.469999999999956,8.2
515,Christchurch,NZ,-43.53,172.64,1551319086,41,75,66.27200000000003,6.7
516,Dukat,RS,42.44,22.31,1551319161,79,48,30.272000000000038,1.12
517,Porto Walter,BR,-8.27,-72.74,1551319365,94,12,76.0694,0.87
518,Kjollefjord,NO,70.95,27.35,1551319366,82,64,20.989399999999968,5.27
519,Sechura,PE,-5.56,-80.82,1551319366,86,0,75.88939999999997,3.02
520,Tafresh,IR,34.69,50.01,1551319366,66,56,34.21940000000001,1.97
521,Yangambi,CD,0.77,24.47,1551319366,100,92,71.65940000000003,1.17
522,Yatou,CM,3.63,9.81,1551319366,100,88,77.59940000000005,2.97
523,Saint-Augustin,FR,44.83,-0.61,1551319226,93,0,52.26799999999999,3.1
524,Bambous Virieux,MU,-20.34,57.76,1551319141,83,40,80.86999999999996,3.1
525,Awjilah,LY,29.14,21.3,1551319367,87,92,50.599400000000045,4.02
526,Northam,GB,51.04,-4.21,1551319330,93,44,49.26199999999996,1.5
527,Kleive,NO,62.8,7.64,1551319230,80,92,39.469999999999956,5.7
528,Namasuba,UG,0.69,32.42,1551319367,74,24,59.059400000000025,1.07
529,Shenzhen,CN,22.54,114.05,1551319337,78,40,75.27200000000003,3.1
530,Turukhansk,RU,65.8,87.96,1551319261,82,20,-13.570600000000013,1.67
531,Karratha,AU,-20.74,116.85,1551319368,44,12,95.68939999999996,3.87
532,Sitrah,BH,26.15,50.62,1551317400,82,0,68.26999999999995,4.1
533,Poum,MK,41.28,20.71,1551319368,74,0,14.554399999999987,0.52
534,Gari,RU,59.43,62.35,1551319368,83,80,10.909400000000026,2.67
535,Kota Kinabalu,MY,5.98,116.07,1551319217,74,75,86.26999999999995,1.5
536,Port-Cartier,CA,50.03,-66.88,1551315600,49,20,3.46999999999996,4.6
537,Isangel,VU,-19.55,169.27,1551319263,100,80,81.33440000000003,8.12
538,Bonito Oriental,HN,15.75,-85.74,1551319369,88,12,68.46439999999997,0.67
539,Ust-Charyshskaya Pristan,RU,52.39,83.67,1551319369,91,88,24.90439999999999,2.42
540,Puerto Narino,CO,-3.77,-70.38,1551315600,100,75,77.26999999999995,1.5
541,Lecce,IT,40.36,18.17,1551319248,70,0,50.26999999999996,3.1
542,Antigonish,CA,45.62,-61.99,1551319355,61,1,16.267999999999983,8.2
543,Kokopo,PG,-4.34,152.27,1551319370,100,64,81.37939999999999,3.02
544,Morondava,MG,-20.3,44.28,1551319370,100,92,78.58939999999997,2.07
545,Puerto Leguizamo,CO,-0.19,-74.78,1551319370,53,44,84.25940000000003,1.67
546,Zyryanka,RU,65.73,150.89,1551319248,55,68,-5.380599999999994,1.52
547,Brewster,US,41.76,-70.08,1551319348,67,90,24.277999999999963,1.5
548,Marienburg,DE,52.12,9.98,1551319337,65,0,50.26999999999996,3.1
549,Halvad,IN,23.02,71.18,1551319371,36,0,57.619400000000006,1.47
550,Aksarka,RU,66.56,67.8,1551319371,84,68,2.7194000000000074,7.52
551,Winchester,GB,51.06,-1.31,1551319085,100,68,44.86999999999996,0.5
552,Port Macquarie,AU,-31.43,152.91,1551319204,53,80,77.26999999999995,3.6
